...1,site,profondeur,latitude,longitude
1,Aeroport,"-4,4",-12.82449,45.27948
2,ile blanche,"-2,4",-12.7157,45.17146
3,surprise,"-2,1",-12.63017,45.15103
4,Ngouja,"-3,112",-12.965066,45.085251
5,Joly Roger,-2,-12.8901,45.085251
6,Sakouli,"-1,813",-12.889719,45.21545
7,Bandrele,"-2,633",-12.905336,45.203535
8,Musical Plage,ND,-12.92022,45.18553
