"","site","profondeur","latitude","longitude","url"
"1","Aeroport","-4,4",-12.82449,45.27948,"<a href=""gallery/ae/listingpages_ae.html""> Aeroport </a>"
"2","ile blanche","-2,4",-12.7157,45.17146,"<a href=""gallery/ib/listingpages_ib.html""> Ile blanche </a>"
"3","surprise","-2,1",-12.63017,45.15103,"<a href=""gallery/su/listingpages_su.html""> Surprise </a>"
"4","Ngouja","-3,112",-12.965066,45.085251,"<a href=""gallery/ng/listingpages_ng.html""> Ngouja </a>"
"5","Joly Roger","-2",-12.890095,45.215116,"<a href=""gallery/Jr/listingpages_Jr.html""> Joly roger </a>"
"6","Sakouli","-1,813",-12.889719,45.21545,"<a href=""gallery/sa/listingpages_sa.html""> Sakouli</a>"
"7","Bandrele","-2,633",-12.905336,45.203535,"<a href=""gallery/ba/listingpages_ba.html""> Bandrele </a>"
"8","Musical Plage","ND",-12.92022,45.18553,"<a href=""gallery/mp/listingpages_mp.html""> Musical Plage </a>"
