site_id,profondeur,latitude,longitude,site_en,site_fr
ae,-4.4,-12.82449,45.27948,"Airport","Aéroport"
ib,-2.4,-12.7157,45.17146,"Île Blanche","Île Blanche"
su,-2.1,-12.63017,45.15103,"Surprise","Surprise"
ng,-3.112,-12.965066,45.085251,"N'gouja","N'gouja"
jr,-2,-12.890095,45.215116,"Jolly Roger","Jolly Roger"
